{"name":"Cities of Brazil","guid":1,"components":[{"type":"DG.GuideView","guid":2,"componentStorage":{"title":"Guide","items":[{"itemTitle":"Explore","url":"http://concord-consortium.github.io/codap-data/FathomDocs/Social_Science/Latin_America/Brazil/BrazilEx.html"},{"itemTitle":"Investigate","url":"http://concord-consortium.github.io/codap-data/FathomDocs/Social_Science/Latin_America/Brazil/BrazilInvest.html"},{"itemTitle":"Source","url":"http://concord-consortium.github.io/codap-data/FathomDocs/Social_Science/Latin_America/Brazil/BrazilSource.html"}],"currentURL":"http://concord-consortium.github.io/codap-data/FathomDocs/Social_Science/Latin_America/Brazil/BrazilEx.html","currentItemTitle":"Explore","isVisible":false},"layout":{"width":416,"height":232}},{"type":"DG.TableView","guid":232,"componentStorage":{"_links_":{"context":{"type":"DG.DataContextRecord","id":3}}},"layout":{"width":517,"height":517,"left":5,"top":5}},{"type":"DG.GraphView","guid":233,"componentStorage":{"_links_":{"context":{"type":"DG.DataContextRecord","id":3},"legendColl":{"type":"DG.CollectionRecord","id":4},"legendAttr":{"type":"DG.Attribute","id":6},"hiddenCases":[],"xColl":{"type":"DG.CollectionRecord","id":4},"xAttr":{"type":"DG.Attribute","id":7},"yColl":{"type":"DG.CollectionRecord","id":4},"yAttr":{"type":"DG.Attribute","id":8}},"legendRole":0,"legendAttributeType":1,"xRole":1,"xAttributeType":1,"yRole":4,"yAttributeType":1,"y2Role":0,"y2AttributeType":0,"xAxisClass":"DG.CellLinearAxisModel","xLowerBound":-72.5,"xUpperBound":-27.5,"yAxisClass":"DG.CellLinearAxisModel","yLowerBound":-37.5,"yUpperBound":7.5,"y2AxisClass":"DG.AxisModel","plotModels":[{"plotModelStorage":{"verticalAxisIsY2":false},"plotClass":"DG.ScatterPlotModel"}]},"layout":{"width":337,"height":370,"left":525,"top":5}}],"contexts":[{"type":"DG.DataContext","document":1,"guid":3,"collections":[{"areParentChildLinksConfigured":false,"attrs":[{"name":"City_name","type":null,"description":"","editable":false,"formula":"","guid":5,"precision":2},{"name":"Population","type":null,"description":"","editable":false,"formula":"","guid":6,"precision":2},{"name":"Longitude","type":null,"description":"","editable":false,"formula":"","guid":7,"precision":2},{"name":"Latitude","type":null,"description":"","editable":false,"formula":"","guid":8,"precision":2},{"name":"LogPop","type":null,"description":"","editable":false,"formula":"","guid":9,"precision":2}],"cases":[{"guid":10,"values":{"City_name":"Abaeteluba","Population":112683,"Longitude":"-48.9","Latitude":"-1.75","LogPop":5.05186}},{"guid":11,"values":{"City_name":"Alagoinhas","Population":128075,"Longitude":"-38.35","Latitude":"-12.15","LogPop":5.10746}},{"guid":12,"values":{"City_name":"Alvorada","Population":179814,"Longitude":"-42.15","Latitude":"-20.72","LogPop":5.25482}},{"guid":13,"values":{"City_name":"Americana","Population":180389,"Longitude":"-47.32","Latitude":"-22.73","LogPop":5.25621}},{"guid":14,"values":{"City_name":"Ananindeua","Population":419754,"Longitude":"","Latitude":"","LogPop":5.62299}},{"guid":15,"values":{"City_name":"Anapolis","Population":287611,"Longitude":"-48.97","Latitude":"-16.32","LogPop":5.45881}},{"guid":16,"values":{"City_name":"Aparecida de Goiania","Population":343145,"Longitude":"-49.27","Latitude":"-16.67","LogPop":5.53548}},{"guid":17,"values":{"City_name":"Apucarana","Population":106385,"Longitude":"","Latitude":"","LogPop":5.02688}},{"guid":18,"values":{"City_name":"Aracaju","Population":451027,"Longitude":"-37.12","Latitude":"-10.9","LogPop":5.6542}},{"guid":19,"values":{"City_name":"Aracatuba","Population":171420,"Longitude":"-50.4","Latitude":"-21.2","LogPop":5.23406}},{"guid":20,"values":{"City_name":"Araguaina","Population":118079,"Longitude":"-48.2","Latitude":"-7.2","LogPop":5.07217}},{"guid":21,"values":{"City_name":"Arapiraca","Population":180766,"Longitude":"-36.67","Latitude":"-9.75","LogPop":5.25712}},{"guid":22,"values":{"City_name":"Araraquara","Population":176298,"Longitude":"-48.13","Latitude":"-21.75","LogPop":5.24625}},{"guid":23,"values":{"City_name":"Araras","Population":102636,"Longitude":"","Latitude":"","LogPop":5.0113}},{"guid":24,"values":{"City_name":"Atibaia","Population":101935,"Longitude":"","Latitude":"","LogPop":5.00832}},{"guid":25,"values":{"City_name":"Bage","Population":122397,"Longitude":"-54.1","Latitude":"-31.37","LogPop":5.08777}},{"guid":26,"values":{"City_name":"Barbacena","Population":114738,"Longitude":"-43.78","Latitude":"-21.22","LogPop":5.05971}},{"guid":27,"values":{"City_name":"Barra Mansa","Population":169648,"Longitude":"-44.2","Latitude":"-22.58","LogPop":5.22955}},{"guid":28,"values":{"City_name":"Barreiras","Population":132247,"Longitude":"","Latitude":"","LogPop":5.12139}},{"guid":29,"values":{"City_name":"Barretos","Population":105262,"Longitude":"","Latitude":"","LogPop":5.02227}},{"guid":30,"values":{"City_name":"Barueri","Population":218242,"Longitude":"-46.88","Latitude":"-23.52","LogPop":5.33894}},{"guid":31,"values":{"City_name":"Bauru","Population":320316,"Longitude":"-49.12","Latitude":"-22.32","LogPop":5.50558}},{"guid":32,"values":{"City_name":"Belem","Population":1200355,"Longitude":"-48.48","Latitude":"-1.45","LogPop":6.07931}},{"guid":33,"values":{"City_name":"Belford Roxo","Population":433348,"Longitude":"-43.4","Latitude":"-22.77","LogPop":5.63684}},{"guid":34,"values":{"City_name":"Belo Horizonte","Population":2154161,"Longitude":"-43.9","Latitude":"-19.9","LogPop":6.33328}},{"guid":35,"values":{"City_name":"Betim","Population":318694,"Longitude":"-44.22","Latitude":"-19.97","LogPop":5.50337}},{"guid":36,"values":{"City_name":"Blumenou","Population":248470,"Longitude":"","Latitude":"","LogPop":5.39527}},{"guid":37,"values":{"City_name":"Boa Vista","Population":171361,"Longitude":"-60.72","Latitude":2.85,"LogPop":5.23391}},{"guid":38,"values":{"City_name":"Botucatu","Population":109800,"Longitude":"","Latitude":"","LogPop":5.0406}},{"guid":39,"values":{"City_name":"Braganca Paulista","Population":119085,"Longitude":"-46.57","Latitude":"-22.92","LogPop":5.07586}},{"guid":40,"values":{"City_name":"BRASILIA","Population":2016497,"Longitude":"-47.67","Latitude":"-15.92","LogPop":6.3046}},{"guid":41,"values":{"City_name":"Cabo de Santo Agostinho","Population":152863,"Longitude":"","Latitude":"","LogPop":5.1843}},{"guid":42,"values":{"City_name":"Cabo Frio","Population":125208,"Longitude":"-35","Latitude":"-8.27","LogPop":5.09763}},{"guid":43,"values":{"City_name":"Cachoeirinha","Population":105428,"Longitude":"","Latitude":"","LogPop":5.02296}},{"guid":44,"values":{"City_name":"Cachoeiro de Itapemirim","Population":156495,"Longitude":"-41.12","Latitude":"-20.85","LogPop":5.1945}},{"guid":45,"values":{"City_name":"Camacari","Population":153635,"Longitude":"-38.27","Latitude":"-12.73","LogPop":5.18649}},{"guid":46,"values":{"City_name":"Camaragibe","Population":121441,"Longitude":"-35.48","Latitude":"-9.32","LogPop":5.08437}},{"guid":47,"values":{"City_name":"Campina Grande","Population":356337,"Longitude":"-35.83","Latitude":"-7.25","LogPop":5.55186}},{"guid":48,"values":{"City_name":"Campinas","Population":962996,"Longitude":"-47.1","Latitude":"-22.9","LogPop":5.98362}},{"guid":49,"values":{"City_name":"Campo Grande","Population":665206,"Longitude":"-54.58","Latitude":"-20.4","LogPop":5.82296}},{"guid":50,"values":{"City_name":"Campos dos Goytacazes","Population":401214,"Longitude":"-41.3","Latitude":"-21.75","LogPop":5.60338}},{"guid":51,"values":{"City_name":"Canoas","Population":297270,"Longitude":"-51.17","Latitude":"-28.92","LogPop":5.47315}},{"guid":52,"values":{"City_name":"Carapicuiba","Population":366895,"Longitude":"-46.83","Latitude":"-23.52","LogPop":5.56454}},{"guid":53,"values":{"City_name":"Cariacica","Population":324660,"Longitude":"-40.38","Latitude":"-20.25","LogPop":5.51143}},{"guid":54,"values":{"City_name":"Caruaru","Population":248110,"Longitude":"-35.92","Latitude":"-8.25","LogPop":5.39464}},{"guid":55,"values":{"City_name":"Cascavel","Population":243139,"Longitude":"-53.48","Latitude":"-24.98","LogPop":5.38585}},{"guid":56,"values":{"City_name":"Castanhal","Population":130866,"Longitude":"-47.92","Latitude":"-1.27","LogPop":5.11683}},{"guid":57,"values":{"City_name":"Catanduva","Population":109908,"Longitude":"","Latitude":"","LogPop":5.04103}},{"guid":58,"values":{"City_name":"Caucaia","Population":248049,"Longitude":"-38.75","Latitude":"-3.73","LogPop":5.39454}},{"guid":59,"values":{"City_name":"Caxias","Population":134042,"Longitude":"-43.35","Latitude":"-4.83","LogPop":5.12724}},{"guid":60,"values":{"City_name":"Caxias do Sul","Population":357044,"Longitude":"-51.17","Latitude":"-29.23","LogPop":5.55272}},{"guid":61,"values":{"City_name":"Chapeco","Population":148301,"Longitude":"-52.68","Latitude":"-27.23","LogPop":5.17114}},{"guid":62,"values":{"City_name":"Codo","Population":102818,"Longitude":"-43.85","Latitude":"-4.47","LogPop":5.01207}},{"guid":63,"values":{"City_name":"Colatina","Population":108240,"Longitude":"-40.62","Latitude":"-19.58","LogPop":5.03439}},{"guid":64,"values":{"City_name":"Colombo","Population":185350,"Longitude":"-49.23","Latitude":"-25.28","LogPop":5.26799}},{"guid":65,"values":{"City_name":"Contagem","Population":529805,"Longitude":"-44.1","Latitude":"-19.9","LogPop":5.72412}},{"guid":66,"values":{"City_name":"Cotia","Population":144162,"Longitude":"-46.63","Latitude":"-23.5","LogPop":5.15885}},{"guid":67,"values":{"City_name":"Crato","Population":100049,"Longitude":"","Latitude":"","LogPop":5.00021}},{"guid":68,"values":{"City_name":"Criciuma","Population":170360,"Longitude":"-49.42","Latitude":"-28.75","LogPop":5.23137}},{"guid":69,"values":{"City_name":"Cubatao","Population":103983,"Longitude":"","Latitude":"","LogPop":5.01696}},{"guid":70,"values":{"City_name":"Cuiaba","Population":460263,"Longitude":"-56.08","Latitude":"-15.53","LogPop":5.66301}},{"guid":71,"values":{"City_name":"Curitiba","Population":1618279,"Longitude":"-49.42","Latitude":"-25.42","LogPop":6.20905}},{"guid":72,"values":{"City_name":"Diadema","Population":338845,"Longitude":"-46.62","Latitude":"-23.7","LogPop":5.53}},{"guid":73,"values":{"City_name":"Divinopolis","Population":189294,"Longitude":"-44.92","Latitude":"-20.13","LogPop":5.27714}},{"guid":74,"values":{"City_name":"Dourados","Population":168349,"Longitude":"-54.83","Latitude":"-22.15","LogPop":5.22621}},{"guid":75,"values":{"City_name":"Duque de Caxias","Population":756738,"Longitude":"-43.32","Latitude":"-22.75","LogPop":5.87895}},{"guid":76,"values":{"City_name":"Embu","Population":230598,"Longitude":"-46.85","Latitude":"-23.65","LogPop":5.36286}},{"guid":77,"values":{"City_name":"Feira de Santana","Population":489291,"Longitude":"-38.88","Latitude":"-12.28","LogPop":5.68957}},{"guid":78,"values":{"City_name":"Ferraz de Vasconcelos","Population":144735,"Longitude":"-46.37","Latitude":"-23.53","LogPop":5.16057}},{"guid":79,"values":{"City_name":"Florianopolis","Population":285281,"Longitude":"-48.52","Latitude":"-27.58","LogPop":5.45527}},{"guid":80,"values":{"City_name":"Fortaleza","Population":2139372,"Longitude":"-38.58","Latitude":"-3.75","LogPop":6.33029}},{"guid":81,"values":{"City_name":"Foz do Iguacu","Population":268188,"Longitude":"-54.52","Latitude":"-25.55","LogPop":5.42844}},{"guid":82,"values":{"City_name":"Franca","Population":297352,"Longitude":"-47.45","Latitude":"-20.55","LogPop":5.47327}},{"guid":83,"values":{"City_name":"Francisco Morato","Population":125915,"Longitude":"","Latitude":"","LogPop":5.10008}},{"guid":84,"values":{"City_name":"Franco da Rocha","Population":112318,"Longitude":"","Latitude":"","LogPop":5.05045}},{"guid":85,"values":{"City_name":"Garanhuns","Population":116027,"Longitude":"-36.48","Latitude":"-8.9","LogPop":5.06456}},{"guid":86,"values":{"City_name":"Goiania","Population":1073490,"Longitude":"-49.3","Latitude":"-16.72","LogPop":6.0308}},{"guid":87,"values":{"City_name":"Governador Valadares","Population":231875,"Longitude":"-41.95","Latitude":"-18.85","LogPop":5.36525}},{"guid":88,"values":{"City_name":"Gravatai","Population":228319,"Longitude":"-51","Latitude":"-29.93","LogPop":5.35854}},{"guid":89,"values":{"City_name":"Guarapuava","Population":163555,"Longitude":"","Latitude":"","LogPop":5.21366}},{"guid":90,"values":{"City_name":"Guaratingueta","Population":105060,"Longitude":"-51.47","Latitude":"-25.37","LogPop":5.02144}},{"guid":91,"values":{"City_name":"Guaruja","Population":240620,"Longitude":"-46.37","Latitude":"-23.86","LogPop":5.38133}},{"guid":92,"values":{"City_name":"Guarulhos","Population":1134819,"Longitude":"-46.58","Latitude":"-23.42","LogPop":6.05493}},{"guid":93,"values":{"City_name":"Hortolandia","Population":142064,"Longitude":"","Latitude":"","LogPop":5.15248}},{"guid":94,"values":{"City_name":"Ibirite","Population":132030,"Longitude":"","Latitude":"","LogPop":5.12067}},{"guid":95,"values":{"City_name":"Ilheus","Population":258917,"Longitude":"-39.1","Latitude":"-14.83","LogPop":5.41316}},{"guid":96,"values":{"City_name":"Imperatriz","Population":224148,"Longitude":"-47.47","Latitude":"-5.53","LogPop":5.35053}},{"guid":97,"values":{"City_name":"Indaiatuba","Population":140396,"Longitude":"-47.23","Latitude":"-23.08","LogPop":5.14735}},{"guid":98,"values":{"City_name":"Ipatinga","Population":209660,"Longitude":"-42.5","Latitude":"-19.53","LogPop":5.32152}},{"guid":99,"values":{"City_name":"Itabirai","Population":104426,"Longitude":"","Latitude":"","LogPop":5.01881}},{"guid":100,"values":{"City_name":"Itaborai","Population":178002,"Longitude":"-42.87","Latitude":"-22.75","LogPop":5.25042}},{"guid":101,"values":{"City_name":"Itabuna","Population":181752,"Longitude":"-39.3","Latitude":"-14.8","LogPop":5.25948}},{"guid":102,"values":{"City_name":"Itaituba","Population":102483,"Longitude":"-55.93","Latitude":"-4.25","LogPop":5.01065}},{"guid":103,"values":{"City_name":"Itajai","Population":148430,"Longitude":"-48.65","Latitude":"-26.83","LogPop":5.17152}},{"guid":104,"values":{"City_name":"Itapecerica da Serra","Population":131860,"Longitude":"","Latitude":"","LogPop":5.12011}},{"guid":105,"values":{"City_name":"Itapetininga","Population":121611,"Longitude":"-48.12","Latitude":"-23.6","LogPop":5.08497}},{"guid":106,"values":{"City_name":"Itapevi","Population":156061,"Longitude":"-46.93","Latitude":"-23.55","LogPop":5.19329}},{"guid":107,"values":{"City_name":"Itaquaquecetuba","Population":284266,"Longitude":"-46.35","Latitude":"-23.48","LogPop":5.45372}},{"guid":108,"values":{"City_name":"Itu","Population":135950,"Longitude":"-47.32","Latitude":"-23.27","LogPop":5.13338}},{"guid":109,"values":{"City_name":"Jaboatao dos Guarapes","Population":567728,"Longitude":"-35","Latitude":"-8.08","LogPop":5.75414}},{"guid":110,"values":{"City_name":"Jacarei","Population":171176,"Longitude":"-45.95","Latitude":"-23.28","LogPop":5.23344}},{"guid":111,"values":{"City_name":"Jaragua do Sul","Population":105575,"Longitude":"","Latitude":"","LogPop":5.02356}},{"guid":112,"values":{"City_name":"Jau","Population":111969,"Longitude":"","Latitude":"","LogPop":5.0491}},{"guid":113,"values":{"City_name":"Jequie","Population":183472,"Longitude":"-40.1","Latitude":"-13.87","LogPop":5.26357}},{"guid":114,"values":{"City_name":"Joao Pessoa","Population":594968,"Longitude":"-34.88","Latitude":"-7.1","LogPop":5.77449}},{"guid":115,"values":{"City_name":"Joinville","Population":437487,"Longitude":"-48.92","Latitude":"-26.33","LogPop":5.64097}},{"guid":116,"values":{"City_name":"Juazeiro","Population":210215,"Longitude":"-40.5","Latitude":"-9.42","LogPop":5.32266}},{"guid":117,"values":{"City_name":"Juazeiro do Norte","Population":202932,"Longitude":"","Latitude":"","LogPop":5.30735}},{"guid":118,"values":{"City_name":"Juiz de Fora","Population":458417,"Longitude":"-43.38","Latitude":"-21.78","LogPop":5.66126}},{"guid":119,"values":{"City_name":"Jundiai","Population":296994,"Longitude":"-46.9","Latitude":"-23.17","LogPop":5.47275}},{"guid":120,"values":{"City_name":"Lages","Population":139137,"Longitude":"-50.33","Latitude":"-27.82","LogPop":5.14344}},{"guid":121,"values":{"City_name":"Lauro de Freitas","Population":113023,"Longitude":"","Latitude":"","LogPop":5.05317}},{"guid":122,"values":{"City_name":"Limeira","Population":250267,"Longitude":"-47.42","Latitude":"-22.57","LogPop":5.3984}},{"guid":123,"values":{"City_name":"Linhares","Population":107254,"Longitude":"-40.07","Latitude":"-19.37","LogPop":5.03041}},{"guid":124,"values":{"City_name":"Londrina","Population":438704,"Longitude":"-51.22","Latitude":"-23.3","LogPop":5.64217}},{"guid":125,"values":{"City_name":"Luziania","Population":131539,"Longitude":"-47.95","Latitude":"-16.27","LogPop":5.11905}},{"guid":126,"values":{"City_name":"Macae","Population":129576,"Longitude":"-41.8","Latitude":"-22.38","LogPop":5.11252}},{"guid":127,"values":{"City_name":"Macapa","Population":267140,"Longitude":"-51.17","Latitude":0,"LogPop":5.42674}},{"guid":128,"values":{"City_name":"Maceio","Population":806167,"Longitude":"-35.73","Latitude":"-9.62","LogPop":5.90643}},{"guid":129,"values":{"City_name":"Mage","Population":200255,"Longitude":"-43","Latitude":"-22.62","LogPop":5.30158}},{"guid":130,"values":{"City_name":"Manaus","Population":1285841,"Longitude":"-60","Latitude":"-3.1","LogPop":6.10919}},{"guid":131,"values":{"City_name":"Maraba","Population":173375,"Longitude":"-49.17","Latitude":"-5.38","LogPop":5.23899}},{"guid":132,"values":{"City_name":"Maracanau","Population":162638,"Longitude":"-38.63","Latitude":"-3.87","LogPop":5.21122}},{"guid":133,"values":{"City_name":"Marilia","Population":192174,"Longitude":"-49.97","Latitude":"-22.22","LogPop":5.28369}},{"guid":134,"values":{"City_name":"Maringa","Population":292299,"Longitude":"-52.03","Latitude":"-23.43","LogPop":5.46583}},{"guid":135,"values":{"City_name":"Maua","Population":385178,"Longitude":"-46.43","Latitude":"-23.67","LogPop":5.58566}},{"guid":136,"values":{"City_name":"Moji das Cruzes","Population":347542,"Longitude":"-46.33","Latitude":"-23.75","LogPop":5.54101}},{"guid":137,"values":{"City_name":"Moji-Guacu","Population":126691,"Longitude":"-46.95","Latitude":"-22.37","LogPop":5.10275}},{"guid":138,"values":{"City_name":"Montes Claros","Population":290609,"Longitude":"-43.87","Latitude":"-16.75","LogPop":5.46331}},{"guid":139,"values":{"City_name":"Mossoro","Population":217763,"Longitude":"-37.25","Latitude":"-5.17","LogPop":5.33798}},{"guid":140,"values":{"City_name":"Natal","Population":699339,"Longitude":"-35.25","Latitude":"-5.77","LogPop":5.84469}},{"guid":141,"values":{"City_name":"Nilopolis","Population":152787,"Longitude":"-43.42","Latitude":"-22.82","LogPop":5.18409}},{"guid":142,"values":{"City_name":"Niteroi","Population":462884,"Longitude":"-43.1","Latitude":"-22.9","LogPop":5.66547}},{"guid":143,"values":{"City_name":"Nossa Senhora do Socorro","Population":139415,"Longitude":"","Latitude":"","LogPop":5.14431}},{"guid":144,"values":{"City_name":"Nova Friburgo","Population":171154,"Longitude":"-42.57","Latitude":"-22.27","LogPop":5.23339}},{"guid":145,"values":{"City_name":"Nova Iguacu","Population":873583,"Longitude":"-43.47","Latitude":"-22.75","LogPop":5.9413}},{"guid":146,"values":{"City_name":"Novo Hamburgo","Population":244274,"Longitude":"-51.12","Latitude":"-29.62","LogPop":5.38788}},{"guid":147,"values":{"City_name":"Olinda","Population":356418,"Longitude":"-34.85","Latitude":"-8","LogPop":5.55196}},{"guid":148,"values":{"City_name":"Osasco","Population":671159,"Longitude":"-46.77","Latitude":"-23.53","LogPop":5.82683}},{"guid":149,"values":{"City_name":"Palmas","Population":133199,"Longitude":"","Latitude":"","LogPop":5.1245}},{"guid":150,"values":{"City_name":"Paranagua","Population":129440,"Longitude":"-48.5","Latitude":"-25.57","LogPop":5.11207}},{"guid":151,"values":{"City_name":"Parnaiba","Population":131386,"Longitude":"-41.77","Latitude":"-2.97","LogPop":5.11855}},{"guid":152,"values":{"City_name":"Passo Fundo","Population":169471,"Longitude":"-52.33","Latitude":"-28.27","LogPop":5.2291}},{"guid":153,"values":{"City_name":"Passos","Population":100700,"Longitude":"","Latitude":"","LogPop":5.00303}},{"guid":154,"values":{"City_name":"Patos de Minas","Population":121325,"Longitude":"-46.53","Latitude":"-18.58","LogPop":5.08395}},{"guid":155,"values":{"City_name":"Paulista","Population":253149,"Longitude":"-34.83","Latitude":"-7.93","LogPop":5.40338}},{"guid":156,"values":{"City_name":"Pelotas","Population":318895,"Longitude":"-52.33","Latitude":"-31.75","LogPop":5.50365}},{"guid":157,"values":{"City_name":"Petrolina","Population":216622,"Longitude":"-40.5","Latitude":"-9.37","LogPop":5.3357}},{"guid":158,"values":{"City_name":"Petropolis","Population":282182,"Longitude":"-43.1","Latitude":"-22.5","LogPop":5.45053}},{"guid":159,"values":{"City_name":"Pindamonhangaba","Population":124413,"Longitude":"-45.47","Latitude":"-22.92","LogPop":5.09487}},{"guid":160,"values":{"City_name":"Pinhais","Population":100991,"Longitude":"","Latitude":"","LogPop":5.00428}},{"guid":161,"values":{"City_name":"Piracicaba","Population":324211,"Longitude":"-47.67","Latitude":"-22.75","LogPop":5.51083}},{"guid":162,"values":{"City_name":"Pocos de Caldas","Population":132156,"Longitude":"-46.55","Latitude":"-21.8","LogPop":5.12109}},{"guid":163,"values":{"City_name":"Ponta Grossa","Population":272668,"Longitude":"-50.15","Latitude":"-25.12","LogPop":5.43563}},{"guid":164,"values":{"City_name":"Porto Alegre","Population":1321886,"Longitude":"","Latitude":"","LogPop":6.12119}},{"guid":165,"values":{"City_name":"Porto Velho","Population":314525,"Longitude":"","Latitude":"","LogPop":5.49766}},{"guid":166,"values":{"City_name":"Pouso Alegre","Population":102189,"Longitude":"","Latitude":"","LogPop":5.0094}},{"guid":167,"values":{"City_name":"Praia Grande","Population":174116,"Longitude":"-46.4","Latitude":"-24","LogPop":5.24084}},{"guid":168,"values":{"City_name":"Presidente Prudente","Population":187851,"Longitude":"-51.4","Latitude":"-22.15","LogPop":5.27381}},{"guid":169,"values":{"City_name":"Queimados","Population":117068,"Longitude":"-39.63","Latitude":"-10.98","LogPop":5.06844}},{"guid":170,"values":{"City_name":"Recife","Population":1388193,"Longitude":"-34.88","Latitude":"-8.06","LogPop":6.14245}},{"guid":171,"values":{"City_name":"Resende","Population":102729,"Longitude":"","Latitude":"","LogPop":5.01169}},{"guid":172,"values":{"City_name":"Ribeirao das Neves","Population":243917,"Longitude":"-45","Latitude":"-19.78","LogPop":5.38724}},{"guid":173,"values":{"City_name":"Ribeirao Pires","Population":111450,"Longitude":"","Latitude":"","LogPop":5.04708}},{"guid":174,"values":{"City_name":"Ribeirao Preto","Population":478637,"Longitude":"-47.83","Latitude":"-21.17","LogPop":5.68001}},{"guid":175,"values":{"City_name":"Rio Branco","Population":269180,"Longitude":"-67.82","Latitude":"-9.98","LogPop":5.43004}},{"guid":176,"values":{"City_name":"Rio Claro","Population":166751,"Longitude":"-47.58","Latitude":"-22.32","LogPop":5.22207}},{"guid":177,"values":{"City_name":"Rio de Janeiro","Population":5613897,"Longitude":"-43.28","Latitude":"-22.88","LogPop":6.74926}},{"guid":178,"values":{"City_name":"Rio Grande","Population":183461,"Longitude":"-52.13","Latitude":"-32.13","LogPop":5.26354}},{"guid":179,"values":{"City_name":"Rio Verde","Population":110009,"Longitude":"","Latitude":"","LogPop":5.04143}},{"guid":180,"values":{"City_name":"Rondonopolis","Population":159083,"Longitude":"-54.62","Latitude":"-16.48","LogPop":5.20162}},{"guid":181,"values":{"City_name":"Sabara","Population":110063,"Longitude":"","Latitude":"","LogPop":5.04164}},{"guid":182,"values":{"City_name":"Salvador","Population":2331612,"Longitude":"-38.48","Latitude":"-12.97","LogPop":6.36766}},{"guid":183,"values":{"City_name":"Santa Barbara D'Oeste","Population":174994,"Longitude":"-47.42","Latitude":"-22.75","LogPop":5.24302}},{"guid":184,"values":{"City_name":"Santa Cruz do Sul","Population":108703,"Longitude":"-52.42","Latitude":"-29.7","LogPop":5.03624}},{"guid":185,"values":{"City_name":"Santa Luzia (Minas Gerais)","Population":168103,"Longitude":"-43.33","Latitude":"-3.7","LogPop":5.22558}},{"guid":186,"values":{"City_name":"Santa Maria","Population":242352,"Longitude":"-53.67","Latitude":"-29.67","LogPop":5.38445}},{"guid":187,"values":{"City_name":"Santa Rita","Population":115502,"Longitude":"","Latitude":"","LogPop":5.06259}},{"guid":188,"values":{"City_name":"Santarem","Population":241461,"Longitude":"-54.68","Latitude":"-2.43","LogPop":5.38285}},{"guid":189,"values":{"City_name":"Santo Andre","Population":631727,"Longitude":"-46.48","Latitude":"-23.65","LogPop":5.80053}},{"guid":190,"values":{"City_name":"Santos","Population":407647,"Longitude":"-46.37","Latitude":"-23.84","LogPop":5.61028}},{"guid":191,"values":{"City_name":"Sao Bernardo do Campo","Population":742887,"Longitude":"-46.57","Latitude":"-23.75","LogPop":5.87092}},{"guid":192,"values":{"City_name":"Sao Caetano do Sul","Population":131273,"Longitude":"-46.57","Latitude":"-23.62","LogPop":5.11818}},{"guid":193,"values":{"City_name":"Sao Carlo","Population":190776,"Longitude":"-47.83","Latitude":"-22","LogPop":5.28052}},{"guid":194,"values":{"City_name":"Sao Goncalo","Population":880561,"Longitude":"-43.06","Latitude":"-22.81","LogPop":5.94476}},{"guid":195,"values":{"City_name":"Sao Joao de Meriti","Population":441858,"Longitude":"-43.37","Latitude":"-22.8","LogPop":5.64528}},{"guid":196,"values":{"City_name":"Sao Jose","Population":157484,"Longitude":"-48.67","Latitude":"-27.58","LogPop":5.19724}},{"guid":197,"values":{"City_name":"Sao Jose de Ribamar","Population":100999,"Longitude":"","Latitude":"","LogPop":5.00432}},{"guid":198,"values":{"City_name":"Sao Jose do Rio Preto","Population":360860,"Longitude":"-49.33","Latitude":"-20.83","LogPop":5.55734}},{"guid":199,"values":{"City_name":"Sao Jose dos Campos","Population":524806,"Longitude":"-45.87","Latitude":"-23.12","LogPop":5.72}},{"guid":200,"values":{"City_name":"Sao Jose dos Pinhais","Population":205663,"Longitude":"-49.22","Latitude":"-25.57","LogPop":5.31316}},{"guid":201,"values":{"City_name":"Sao Leopoldo","Population":191958,"Longitude":"-51.18","Latitude":"-29.75","LogPop":5.28321}},{"guid":202,"values":{"City_name":"Sao Luis","Population":855442,"Longitude":"-44.25","Latitude":"-2.65","LogPop":5.93219}},{"guid":203,"values":{"City_name":"Sao Paulo","Population":10009231,"Longitude":"-46.63","Latitude":"-23.55","LogPop":7.0004}},{"guid":204,"values":{"City_name":"Sao Vicente","Population":289153,"Longitude":"-46.47","Latitude":"-23.95","LogPop":5.46113}},{"guid":205,"values":{"City_name":"Sapucaia do Sul","Population":122156,"Longitude":"-51.15","Latitude":"-29.83","LogPop":5.08691}},{"guid":206,"values":{"City_name":"Serra","Population":312846,"Longitude":"-40.27","Latitude":"-20.1","LogPop":5.49533}},{"guid":207,"values":{"City_name":"Sertaozinho","Population":101162,"Longitude":"","Latitude":"","LogPop":5.00502}},{"guid":208,"values":{"City_name":"Sete Lagoas","Population":187911,"Longitude":"-44.25","Latitude":"-19.48","LogPop":5.27395}},{"guid":209,"values":{"City_name":"Sobral","Population":148346,"Longitude":"-40.33","Latitude":"-3.75","LogPop":5.17128}},{"guid":210,"values":{"City_name":"Sorocaba","Population":477927,"Longitude":"-47.53","Latitude":"-23.5","LogPop":5.67936}},{"guid":211,"values":{"City_name":"Sumare","Population":191920,"Longitude":"-47.27","Latitude":"-22.83","LogPop":5.28312}},{"guid":212,"values":{"City_name":"Susano","Population":200062,"Longitude":"-46.3","Latitude":"-23.52","LogPop":5.30116}},{"guid":213,"values":{"City_name":"Taboao da Serra","Population":202287,"Longitude":"-46.78","Latitude":"-23.62","LogPop":5.30597}},{"guid":214,"values":{"City_name":"Taubate","Population":231933,"Longitude":"-45.6","Latitude":"-23","LogPop":5.36536}},{"guid":215,"values":{"City_name":"Teixeira de Freitas","Population":112201,"Longitude":"","Latitude":"","LogPop":5.05}},{"guid":216,"values":{"City_name":"Teofilo Otoni","Population":123541,"Longitude":"-41.52","Latitude":"-17.87","LogPop":5.09181}},{"guid":217,"values":{"City_name":"Teresina","Population":703796,"Longitude":"-42.77","Latitude":"-5.15","LogPop":5.84745}},{"guid":218,"values":{"City_name":"Teresopolis","Population":129010,"Longitude":"-42.98","Latitude":"-22.45","LogPop":5.11062}},{"guid":219,"values":{"City_name":"Timon","Population":128135,"Longitude":"-42.82","Latitude":"-6","LogPop":5.10767}},{"guid":220,"values":{"City_name":"Toledo","Population":102215,"Longitude":"","Latitude":"","LogPop":5.00951}},{"guid":221,"values":{"City_name":"Uberaba","Population":254520,"Longitude":"-47.95","Latitude":"-19.78","LogPop":5.40572}},{"guid":222,"values":{"City_name":"Uberlandia","Population":502416,"Longitude":"-48.28","Latitude":"-18.95","LogPop":5.70106}},{"guid":223,"values":{"City_name":"Uruguaiana","Population":127838,"Longitude":"-57.08","Latitude":"-29.75","LogPop":5.10666}},{"guid":224,"values":{"City_name":"Varginha","Population":110879,"Longitude":"","Latitude":"","LogPop":5.04485}},{"guid":225,"values":{"City_name":"Varzea Grande","Population":221073,"Longitude":"-42.08","Latitude":"-6.53","LogPop":5.34454}},{"guid":226,"values":{"City_name":"Viamao","Population":210953,"Longitude":"-51","Latitude":"-30.08","LogPop":5.32419}},{"guid":227,"values":{"City_name":"Vila Velha","Population":325482,"Longitude":"-40.3","Latitude":"-20.38","LogPop":5.51253}},{"guid":228,"values":{"City_name":"Vitoria","Population":272126,"Longitude":"-40.35","Latitude":"-20.32","LogPop":5.43477}},{"guid":229,"values":{"City_name":"Vitoria da Conquista","Population":257190,"Longitude":"-40.87","Latitude":"-14.88","LogPop":5.41025}},{"guid":230,"values":{"City_name":"Vitoria de Santo Antao","Population":114449,"Longitude":"","Latitude":"","LogPop":5.05861}},{"guid":231,"values":{"City_name":"Volta Redonda","Population":242845,"Longitude":"-44.08","Latitude":"-22.52","LogPop":5.38533}}],"guid":4,"name":"cases"}],"contextStorage":{}}],"globalValues":[],"appName":"","appVersion":"","appBuildNum":""}